<?xml version="1.0"?>
<gpx creator="GPS Visualizer http://www.gpsvisualizer.com/" version="1.1" xmlns="http://www.topografix.com/GPX/1/1" xmlns:xsi="http://www.w3.org/2001/XMLSchema-instance" xsi:schemaLocation="http://www.topografix.com/GPX/1/1 http://www.topografix.com/GPX/1/1/gpx.xsd">
 <trk>
  <trkseg>
   <trkpt lat="2.610638889" lon="32.37827778">
    <time>2014-02-05T17:58:00Z</time>
   </trkpt>
  </trkseg>
 </trk>
<wpt lat="2.610638889" lon="32.37827778"><time>2014-02-05T17:58:00Z</time><name>Akeca</name></wpt>
<wpt lat="2.632305556" lon="32.41952778"><time>2014-02-05T17:58:01Z</time><name>Keto</name></wpt>
<wpt lat="2.629722222" lon="32.37027778"><time>2014-02-05T17:58:02Z</time><name>Atyang</name></wpt>
<wpt lat="2.657777778" lon="32.415"><time>2014-02-05T17:58:03Z</time><name>Labuje</name></wpt>
<wpt lat="2.635555556" lon="32.35694444"><time>2014-02-05T17:58:04Z</time><name>Lagwedola</name></wpt>
<wpt lat="2.6795" lon="32.41325"><time>2014-02-05T17:58:05Z</time><name>Lamin Opabo</name></wpt>
<wpt lat="2.666111111" lon="32.41297222"><time>2014-02-05T17:58:06Z</time><name>Te Opok</name></wpt>
<wpt lat="2.550833333" lon="32.4375"><time>2014-02-05T17:58:07Z</time><name>Abura Amwonya</name></wpt>
<wpt lat="2.528055556" lon="32.42722222"><time>2014-02-05T17:58:08Z</time><name>Bur Kweyo</name></wpt>
<wpt lat="2.551222222" lon="32.41402778"><time>2014-02-05T17:58:09Z</time><name>Obir</name></wpt>
<wpt lat="2.540416667" lon="32.4275"><time>2014-02-05T17:58:10Z</time><name>Ocok Can</name></wpt>
<wpt lat="2.551194444" lon="32.41408333"><time>2014-02-05T17:58:11Z</time><name>Olula</name></wpt>
<wpt lat="2.537916667" lon="32.41647222"><time>2014-02-05T17:58:12Z</time><name>Te ilwa</name></wpt>
<wpt lat="2.590833333" lon="32.43888889"><time>2014-02-05T17:58:13Z</time><name>Laboromor</name></wpt>
<wpt lat="2.580694444" lon="32.45466667"><time>2014-02-05T17:58:14Z</time><name>Lwala </name></wpt>
<wpt lat="2.608888889" lon="32.47444444"><time>2014-02-05T17:58:15Z</time><name>Opit</name></wpt>
<wpt lat="2.577888889" lon="32.42722222"><time>2014-02-05T17:58:16Z</time><name>Wii Atoo</name></wpt>
<wpt lat="2.574138889" lon="32.42194444"><time>2014-02-05T17:58:17Z</time><name>Wii Gweng</name></wpt>
<wpt lat="2.687777778" lon="32.5625"><time>2014-02-05T17:58:18Z</time><name>Abuturu</name></wpt>
<wpt lat="2.671388889" lon="32.55694444"><time>2014-02-05T17:58:19Z</time><name>Agwari</name></wpt>
<wpt lat="2.632944444" lon="32.52044444"><time>2014-02-05T17:58:20Z</time><name>Lagude</name></wpt>
<wpt lat="2.629694444" lon="32.51169444"><time>2014-02-05T17:58:21Z</time><name>Lamin Lyeka</name></wpt>
<wpt lat="2.634944444" lon="32.55155556"><time>2014-02-05T17:58:22Z</time><name>Lugung</name></wpt>
<wpt lat="2.632138889" lon="32.57155556"><time>2014-02-05T17:58:23Z</time><name>Opwach</name></wpt>
<wpt lat="2.635" lon="32.55155556"><time>2014-02-05T17:58:24Z</time><name>Otal</name></wpt>
<wpt lat="2.698333333" lon="32.53825"><time>2014-02-05T17:58:25Z</time><name>Latinyer</name></wpt>
<wpt lat="2.75025" lon="32.54772222"><time>2014-02-05T17:58:26Z</time><name>Loyo Ajonga</name></wpt>
<wpt lat="2.690166667" lon="32.53391667"><time>2014-02-05T17:58:27Z</time><name>Omokokitunge</name></wpt>
<wpt lat="2.605833333" lon="32.59138889"><time>2014-02-05T17:58:28Z</time><name>Ayomlony</name></wpt>
<wpt lat="2.606111111" lon="32.62388889"><time>2014-02-05T17:58:29Z</time><name>Lamin Onami</name></wpt>
<wpt lat="2.710833333" lon="32.58194444"><time>2014-02-05T17:58:30Z</time><name>Ocim</name></wpt>
<wpt lat="2.6475" lon="32.60516667"><time>2014-02-05T17:58:31Z</time><name>Wanglobo</name></wpt>
<wpt lat="2.686527778" lon="32.44730556"><time>2014-02-05T17:58:32Z</time><name>Adak</name></wpt>
<wpt lat="2.732222222" lon="32.48111111"><time>2014-02-05T17:58:33Z</time><name>Ingula</name></wpt>
<wpt lat="2.699194444" lon="32.47213889"><time>2014-02-05T17:58:34Z</time><name>Lakwaya</name></wpt>
<wpt lat="2.662722222" lon="32.46877778"><time>2014-02-05T17:58:35Z</time><name>Awat Lela</name></wpt>
<wpt lat="2.615" lon="32.47722222"><time>2014-02-05T17:58:36Z</time><name>Opit Lower Center</name></wpt>
<wpt lat="2.650722222" lon="32.47208333"><time>2014-02-05T17:58:37Z</time><name>Te Store</name></wpt>
<wpt lat="2.688833333" lon="32.66016667"><time>2014-02-05T17:58:38Z</time><name>Acet Central</name></wpt>
<wpt lat="2.791111111" lon="32.62972222"><time>2014-02-05T17:58:39Z</time><name>Layoko</name></wpt>
<wpt lat="2.712777778" lon="32.69641667"><time>2014-02-05T17:58:40Z</time><name>Lukoto</name></wpt>
<wpt lat="2.700138889" lon="32.60758333"><time>2014-02-05T17:58:41Z</time><name>Omuny Jubi</name></wpt>
<wpt lat="2.738416667" lon="32.61655556"><time>2014-02-05T17:58:42Z</time><name>Ora Pwoyo</name></wpt>
<wpt lat="2.684972222" lon="32.64319444"><time>2014-02-05T17:58:43Z</time><name>Romkituku</name></wpt>
<wpt lat="2.777333333" lon="32.66480556"><time>2014-02-05T17:58:44Z</time><name>Te Aceng</name></wpt>
<wpt lat="2.684972222" lon="32.78480556"><time>2014-02-05T17:58:45Z</time><name>Ajan</name></wpt>
<wpt lat="2.645111111" lon="32.79275"><time>2014-02-05T17:58:46Z</time><name>Akoyo</name></wpt>
<wpt lat="2.62875" lon="32.81341667"><time>2014-02-05T17:58:47Z</time><name>Aromo</name></wpt>
<wpt lat="2.650361111" lon="32.779"><time>2014-02-05T17:58:48Z</time><name>Awali</name></wpt>
<wpt lat="2.618888889" lon="32.78422222"><time>2014-02-05T17:58:00Z</time><name>Awali Wanglobo</name></wpt>
<wpt lat="2.623138889" lon="32.74661111"><time>2014-02-05T17:58:00Z</time><name>Dino</name></wpt>
<wpt lat="2.660861111" lon="32.65366667"><time>2014-02-05T17:58:00Z</time><name>Bar Olam</name></wpt>
<wpt lat="2.608055556" lon="32.6775"><time>2014-02-05T17:58:00Z</time><name>Ogwari</name></wpt>
<wpt lat="2.665" lon="32.69777778"><time>2014-02-05T17:58:00Z</time><name>Oratido</name></wpt>
<wpt lat="2.626861111" lon="32.62055556"><time>2014-02-05T17:58:00Z</time><name>Oryang</name></wpt>
<wpt lat="2.723638889" lon="32.72863889"><time>2014-02-05T17:58:00Z</time><name>Lakim</name></wpt>
<wpt lat="2.693694444" lon="32.69388889"><time>2014-02-05T17:58:00Z</time><name>Lamur Oratido</name></wpt>
<wpt lat="2.682638889" lon="32.72655556"><time>2014-02-05T17:58:00Z</time><name>Odek</name></wpt>
<wpt lat="2.693611111" lon="32.69361111"><time>2014-02-05T17:58:00Z</time><name>Olam</name></wpt>
<wpt lat="2.693055556" lon="32.69388889"><time>2014-02-05T17:58:00Z</time><name>Opong Goga</name></wpt>
<wpt lat="3.397666667" lon="33.36527778"><time>2014-02-05T17:58:00Z</time><name>Kalabong Central</name></wpt>
<wpt lat="3.394083333" lon="33.35388889"><time>2014-02-05T17:58:00Z</time><name>Kalabong West</name></wpt>
<wpt lat="3.372611111" lon="33.38538889"><time>2014-02-05T17:58:00Z</time><name>Masese</name></wpt>
<wpt lat="3.360183333" lon="33.33756667"><time>2014-02-05T17:58:00Z</time><name>Kako</name></wpt>
<wpt lat="3.371583333" lon="33.32526667"><time>2014-02-05T17:58:00Z</time><name>Kweyo</name></wpt>
<wpt lat="3.348055556" lon="33.32869444"><time>2014-02-05T17:58:00Z</time><name>Ladwogi</name></wpt>
<wpt lat="3.369888889" lon="33.26908333"><time>2014-02-05T17:58:00Z</time><name>Logum A</name></wpt>
<wpt lat="3.372638889" lon="33.24986111"><time>2014-02-05T17:58:00Z</time><name>Onyala</name></wpt>
<wpt lat="3.28805" lon="33.35448333"><time>2014-02-05T17:58:00Z</time><name>Agot Agot</name></wpt>
<wpt lat="3.294083333" lon="33.36281667"><time>2014-02-05T17:58:00Z</time><name>Bajere</name></wpt>
<wpt lat="3.313916667" lon="33.38308333"><time>2014-02-05T17:58:00Z</time><name>Guda</name></wpt>
<wpt lat="3.334444444" lon="33.31747222"><time>2014-02-05T17:58:00Z</time><name>Boroboro</name></wpt>
<wpt lat="3.317555556" lon="33.29027778"><time>2014-02-05T17:58:00Z</time><name>Lapana</name></wpt>
<wpt lat="3.346555556" lon="33.33525"><time>2014-02-05T17:58:00Z</time><name>Oryang</name></wpt>
<wpt lat="3.258333333" lon="33.16444444"><time>2014-02-05T17:58:00Z</time><name>Abaka Dyel</name></wpt>
<wpt lat="3.2425" lon="33.18094444"><time>2014-02-05T17:58:00Z</time><name>Akobi Olwoch</name></wpt>
<wpt lat="3.258388889" lon="33.15405556"><time>2014-02-05T17:58:00Z</time><name>Gwokongwee West</name></wpt>
<wpt lat="3.249472222" lon="33.14761111"><time>2014-02-05T17:58:00Z</time><name>Lagampir</name></wpt>
<wpt lat="3.242444444" lon="33.181"><time>2014-02-05T17:58:00Z</time><name>Tee-Odong</name></wpt>
<wpt lat="3.209616667" lon="33.30018333"><time>2014-02-05T17:58:00Z</time><name>Kalele</name></wpt>
<wpt lat="3.2559" lon="33.23071667"><time>2014-02-05T17:58:00Z</time><name>Katoplak</name></wpt>
<wpt lat="3.24025" lon="33.25853333"><time>2014-02-05T17:58:00Z</time><name>Kumele Wicere</name></wpt>
<wpt lat="3.249016667" lon="33.27951667"><time>2014-02-05T17:58:00Z</time><name>Lanyap</name></wpt>
<wpt lat="3.20715" lon="33.28996667"><time>2014-02-05T17:58:00Z</time><name>Ogili</name></wpt>
<wpt lat="3.232527778" lon="33.21919444"><time>2014-02-05T17:58:00Z</time><name>Laraka</name></wpt>
<wpt lat="3.28615" lon="33.19115"><time>2014-02-05T17:58:00Z</time><name>Lwala Village</name></wpt>
<wpt lat="3.233816667" lon="33.22068333"><time>2014-02-05T17:58:00Z</time><name>Mota Central</name></wpt>
<wpt lat="3.254266667" lon="33.19888333"><time>2014-02-05T17:58:00Z</time><name>Obwore East</name></wpt>
<wpt lat="3.301666667" lon="33.16311667"><time>2014-02-05T17:58:00Z</time><name>Orabonyo</name></wpt>
<wpt lat="3.298083333" lon="33.20144444"><time>2014-02-05T17:58:00Z</time><name>Barongwe</name></wpt>
<wpt lat="3.267888889" lon="33.21072222"><time>2014-02-05T17:58:00Z</time><name>Kweyo</name></wpt>
<wpt lat="3.285194444" lon="33.22994444"><time>2014-02-05T17:58:00Z</time><name>Lamodyak</name></wpt>
<wpt lat="3.315111111" lon="33.19777778"><time>2014-02-05T17:58:00Z</time><name>Latuturu</name></wpt>
<wpt lat="3.3279" lon="33.266"><time>2014-02-05T17:58:00Z</time><name>Loka-Olet</name></wpt>
<wpt lat="3.306016667" lon="33.24863333"><time>2014-02-05T17:58:00Z</time><name>Puyuda</name></wpt>
<wpt lat="3.526527778" lon="33.58344444"><time>2014-02-05T17:58:00Z</time><name>Labolo</name></wpt>
<wpt lat="3.26645" lon="33.20735"><time>2014-02-05T17:58:00Z</time><name>Lochim</name></wpt>
<wpt lat="3.450033333" lon="33.65226667"><time>2014-02-05T17:58:00Z</time><name>Locomo Central</name></wpt>
<wpt lat="3.44505" lon="33.55038333"><time>2014-02-05T17:58:00Z</time><name>Bilayolo</name></wpt>
<wpt lat="3.4653" lon="33.55916667"><time>2014-02-05T17:58:00Z</time><name>Lokungu</name></wpt>
<wpt lat="3.4384" lon="33.53815"><time>2014-02-05T17:58:00Z</time><name>Olaya</name></wpt>
<wpt lat="3.535583333" lon="33.46480556"><time>2014-02-05T17:58:00Z</time><name>Apimotur</name></wpt>
<wpt lat="3.540861111" lon="33.46580556"><time>2014-02-05T17:58:00Z</time><name>Goona</name></wpt>
<wpt lat="3.488777778" lon="33.41147222"><time>2014-02-05T17:58:00Z</time><name>Lalekan Central</name></wpt>
<wpt lat="3.493766667" lon="33.47791667"><time>2014-02-05T17:58:00Z</time><name>Lokongera</name></wpt>
<wpt lat="3.400472222" lon="33.43575"><time>2014-02-05T17:58:00Z</time><name>Palobar A</name></wpt>
<wpt lat="3.540805556" lon="33.46580556"><time>2014-02-05T17:58:00Z</time><name>Tegot Kalabong</name></wpt>
<wpt lat="3.399638889" lon="33.46930556"><time>2014-02-05T17:58:00Z</time><name>Kona</name></wpt>
<wpt lat="3.391133333" lon="33.52936667"><time>2014-02-05T17:58:00Z</time><name>Lapeitak</name></wpt>
<wpt lat="3.398888889" lon="33.46891667"><time>2014-02-05T17:58:00Z</time><name>Lenga Central</name></wpt>
<wpt lat="3.371716667" lon="33.52025"><time>2014-02-05T17:58:00Z</time><name>Ringilil</name></wpt>
<wpt lat="3.367722222" lon="33.40947222"><time>2014-02-05T17:58:00Z</time><name>Ceylon West</name></wpt>
<wpt lat="3.364638889" lon="33.52397222"><time>2014-02-05T17:58:00Z</time><name>Kamanding</name></wpt>
<wpt lat="3.387472222" lon="33.46819444"><time>2014-02-05T17:58:00Z</time><name>Labwomor</name></wpt>
<wpt lat="3.370555556" lon="33.51263889"><time>2014-02-05T17:58:00Z</time><name>Logerema</name></wpt>
<wpt lat="3.363138889" lon="33.52230556"><time>2014-02-05T17:58:00Z</time><name>Madi Opei</name></wpt>
<wpt lat="3.554277778" lon="33.48644444"><time>2014-02-05T17:58:00Z</time><name>Akilok Central</name></wpt>
<wpt lat="3.618305556" lon="33.53938889"><time>2014-02-05T17:58:00Z</time><name>Kolopire</name></wpt>
<wpt lat="3.610638889" lon="33.54266667"><time>2014-02-05T17:58:00Z</time><name>Lokom Central</name></wpt>
<wpt lat="3.619416667" lon="33.53225"><time>2014-02-05T17:58:00Z</time><name>Pudpud</name></wpt>

